[
  {
    "id": "274",
    "title": "AG DFNsP Banská Bystrica",
    "longitude": "19.11553711",
    "latitude": "48.74455887",
    "city": "Banská Bystrica",
    "street_name": "Námestie Ludvika Svobodu",
    "street_number": "4",
    "postal_code": "97409",
    "region_id": "5",
    "region_name": "Banskobystrický",
    "county_id": "23",
    "county_name": "Banská Bystrica"
  },
  {
    "id": "750",
    "title": "AG RUVZ Banská Bystrica",
    "longitude": "19.00000000",
    "latitude": "48.00000000",
    "city": "Banská Bystrica",
    "street_name": "Cesta k nemocnici",
    "street_number": "1",
    "postal_code": "97401",
    "region_id": "5",
    "region_name": "Banskobystrický",
    "county_id": "23",
    "county_name": "Banská Bystrica"
  },
  {
    "id": "687",
    "title": "AG NsP Bardejov (1)",
    "longitude": "21.27222200",
    "latitude": "49.28770444",
    "city": "Bardejov",
    "street_name": "Svätého Jakuba",
    "street_number": "510",
    "postal_code": "08501",
    "region_id": "6",
    "region_name": "Prešovský",
    "county_id": "4",
    "county_name": "Bardejov"
  },
  {
    "id": "499",
    "title": "AG NsP Bardejov (2)",
    "longitude": "21.27222200",
    "latitude": "49.28770444",
    "city": "Bardejov",
    "street_name": "Svätého Jakuba",
    "street_number": "510",
    "postal_code": "08501",
    "region_id": "6",
    "region_name": "Prešovský",
    "county_id": "4",
    "county_name": "Bardejov"
  },
  {
    "id": "322",
    "title": "AG AnalytX, Bratislava",
    "longitude": "17.20335174",
    "latitude": "48.13739870",
    "city": "Bratislava",
    "street_name": "Vrakunská",
    "street_number": "41",
    "postal_code": "82107",
    "region_id": "1",
    "region_name": "Bratislavský",
    "county_id": "60",
    "county_name": "Bratislava II"
  },
  {
    "id": "292",
    "title": "AG Benedictus MRM, Bratislava (1)",
    "longitude": "17.11939283",
    "latitude": "48.14893562",
    "city": "Bratislava",
    "street_name": "Cukrová",
    "street_number": "14",
    "postal_code": "81108",
    "region_id": "1",
    "region_name": "Bratislavský",
    "county_id": "56",
    "county_name": "Bratislava I"
  },
  {
    "id": "562",
    "title": "AG Benedictus MRM, Bratislava (2)",
    "longitude": "17.11939283",
    "latitude": "48.14893562",
    "city": "Bratislava",
    "street_name": "Cukrová",
    "street_number": "14",
    "postal_code": "81108",
    "region_id": "1",
    "region_name": "Bratislavský",
    "county_id": "56",
    "county_name": "Bratislava I"
  },
  {
    "id": "323",
    "title": "AG Bonum Salutem, Bratislava II (1)",
    "longitude": "17.16422514",
    "latitude": "48.14973847",
    "city": "Bratislava",
    "street_name": "Mierová",
    "street_number": "21",
    "postal_code": "82105",
    "region_id": "1",
    "region_name": "Bratislavský",
    "county_id": "60",
    "county_name": "Bratislava II"
  },
  {
    "id": "606",
    "title": "AG Bonum Salutem, Bratislava II (2)",
    "longitude": "17.16422514",
    "latitude": "48.14973847",
    "city": "Bratislava",
    "street_name": "Mierová",
    "street_number": "21",
    "postal_code": "82105",
    "region_id": "1",
    "region_name": "Bratislavský",
    "county_id": "60",
    "county_name": "Bratislava II"
  },
  {
    "id": "743",
    "title": "AG Bonum Salutem, Bratislava III (1)",
    "longitude": "17.20219873",
    "latitude": "48.20569889",
    "city": "Bratislava",
    "street_name": "Rybničná",
    "street_number": "13",
    "postal_code": "83107",
    "region_id": "1",
    "region_name": "Bratislavský",
    "county_id": "59",
    "county_name": "Bratislava III"
  },
  {
    "id": "744",
    "title": "AG Bonum Salutem, Bratislava III (2)",
    "longitude": "17.20219873",
    "latitude": "48.20569889",
    "city": "Bratislava",
    "street_name": "Rybničná",
    "street_number": "13",
    "postal_code": "83107",
    "region_id": "1",
    "region_name": "Bratislavský",
    "county_id": "59",
    "county_name": "Bratislava III"
  },
  {
    "id": "319",
    "title": "AG HEDAK, Bratislava (1)",
    "longitude": "17.11552034",
    "latitude": "48.15443582",
    "city": "Bratislava",
    "street_name": "Mýtna",
    "street_number": "5",
    "postal_code": "81107",
    "region_id": "1",
    "region_name": "Bratislavský",
    "county_id": "56",
    "county_name": "Bratislava I"
  },
  {
    "id": "591",
    "title": "AG HEDAK, Bratislava (2)",
    "longitude": "17.11552034",
    "latitude": "48.15443582",
    "city": "Bratislava",
    "street_name": "Mýtna",
    "street_number": "5",
    "postal_code": "81107",
    "region_id": "1",
    "region_name": "Bratislavský",
    "county_id": "56",
    "county_name": "Bratislava I"
  },
  {
    "id": "332",
    "title": "AG LASER THERAPY, Bratislava Nové Mesto (1)",
    "longitude": "17.13072527",
    "latitude": "48.16156485",
    "city": "Bratislava",
    "street_name": "Vajnorská",
    "street_number": "21",
    "postal_code": "83103",
    "region_id": "1",
    "region_name": "Bratislavský",
    "county_id": "59",
    "county_name": "Bratislava III"
  },
  {
    "id": "597",
    "title": "AG LASER THERAPY, Bratislava Nové Mesto (2)",
    "longitude": "17.13072527",
    "latitude": "48.16156485",
    "city": "Bratislava",
    "street_name": "Vajnorská",
    "street_number": "21",
    "postal_code": "83103",
    "region_id": "1",
    "region_name": "Bratislavský",
    "county_id": "59",
    "county_name": "Bratislava III"
  },
  {
    "id": "324",
    "title": "AG LASER THERAPY, Bratislava Ružinov (1)",
    "longitude": "17.16465666",
    "latitude": "48.15662282",
    "city": "Bratislava",
    "street_name": "DK Ružinov, Ružinovská",
    "street_number": "28",
    "postal_code": "82104",
    "region_id": "1",
    "region_name": "Bratislavský",
    "county_id": "60",
    "county_name": "Bratislava II"
  },
  {
    "id": "558",
    "title": "AG LASER THERAPY, Bratislava Ružinov (2)",
    "longitude": "17.16465666",
    "latitude": "48.15662282",
    "city": "Bratislava",
    "street_name": "DK Ružinov, Ružinovská",
    "street_number": "28",
    "postal_code": "82104",
    "region_id": "1",
    "region_name": "Bratislavský",
    "county_id": "60",
    "county_name": "Bratislava II"
  },
  {
    "id": "325",
    "title": "AG MEDANTE Clinic, Bratislava (1)",
    "longitude": "17.19480496",
    "latitude": "48.15396623",
    "city": "Bratislava",
    "street_name": "Podpriehradná",
    "street_number": "3A",
    "postal_code": "82107",
    "region_id": "1",
    "region_name": "Bratislavský",
    "county_id": "60",
    "county_name": "Bratislava II"
  },
  {
    "id": "580",
    "title": "AG MEDANTE Clinic, Bratislava (2)",
    "longitude": "17.19480496",
    "latitude": "48.15396623",
    "city": "Bratislava",
    "street_name": "Podpriehradná",
    "street_number": "3A",
    "postal_code": "82107",
    "region_id": "1",
    "region_name": "Bratislavský",
    "county_id": "60",
    "county_name": "Bratislava II"
  },
  {
    "id": "293",
    "title": "AG Merci, Bratislava (1)",
    "longitude": "17.21290758",
    "latitude": "48.13845845",
    "city": "Bratislava",
    "street_name": "Čiernovodská",
    "street_number": "25",
    "postal_code": "82107",
    "region_id": "1",
    "region_name": "Bratislavský",
    "county_id": "60",
    "county_name": "Bratislava II"
  },
  {
    "id": "410",
    "title": "AG Merci, Bratislava (2)",
    "longitude": "17.21290758",
    "latitude": "48.13845845",
    "city": "Bratislava",
    "street_name": "Čiernovodská",
    "street_number": "25",
    "postal_code": "82107",
    "region_id": "1",
    "region_name": "Bratislavský",
    "county_id": "60",
    "county_name": "Bratislava II"
  },
  {
    "id": "739",
    "title": "AG Mestská časť Bratislava - Lamač (1)",
    "longitude": "17.04978314",
    "latitude": "48.19906160",
    "city": "Bratislava",
    "street_name": "Na barine",
    "street_number": "15",
    "postal_code": "84103",
    "region_id": "1",
    "region_name": "Bratislavský",
    "county_id": "58",
    "county_name": "Bratislava IV"
  },
  {
    "id": "740",
    "title": "AG Mestská časť Bratislava - Lamač (2)",
    "longitude": "17.04978314",
    "latitude": "48.19906160",
    "city": "Bratislava",
    "street_name": "Na barine",
    "street_number": "15",
    "postal_code": "84103",
    "region_id": "1",
    "region_name": "Bratislavský",
    "county_id": "58",
    "county_name": "Bratislava IV"
  },
  {
    "id": "289",
    "title": "AG Poliklinika Karlova Ves (1)",
    "longitude": "17.06124286",
    "latitude": "48.15410566",
    "city": "Bratislava",
    "street_name": "Líščie údolie",
    "street_number": "57 - interér",
    "postal_code": null,
    "region_id": null,
    "region_name": null,
    "county_id": null,
    "county_name": null
  },
  {
    "id": "559",
    "title": "AG Poliklinika Karlova Ves (2)",
    "longitude": "17.06124286",
    "latitude": "48.15410566",
    "city": "Bratislava",
    "street_name": "Líščie údolie",
    "street_number": "57 - interér",
    "postal_code": null,
    "region_id": null,
    "region_name": null,
    "county_id": null,
    "county_name": null
  },
  {
    "id": "329",
    "title": "AG Ružinovská poliklinika, Bratislava (1)",
    "longitude": "17.15394166",
    "latitude": "48.15569538",
    "city": "Bratislava",
    "street_name": "Ružinovská",
    "street_number": "10",
    "postal_code": "82101",
    "region_id": "1",
    "region_name": "Bratislavský",
    "county_id": "60",
    "county_name": "Bratislava II"
  },
  {
    "id": "596",
    "title": "AG Ružinovská poliklinika, Bratislava (2)",
    "longitude": "17.15394166",
    "latitude": "48.15569538",
    "city": "Bratislava",
    "street_name": "Ružinovská",
    "street_number": "10",
    "postal_code": "82101",
    "region_id": "1",
    "region_name": "Bratislavský",
    "county_id": "60",
    "county_name": "Bratislava II"
  },
  {
    "id": "367",
    "title": "AG OCHRANA ZDRAVIA, Dobšiná (1)",
    "longitude": "20.37356467",
    "latitude": "48.82137870",
    "city": "Dobšiná",
    "street_name": "Hnilecká",
    "street_number": "917 - interiér",
    "postal_code": "04925",
    "region_id": "7",
    "region_name": "Košický",
    "county_id": "13",
    "county_name": "Rožňava"
  },
  {
    "id": "630",
    "title": "AG OCHRANA ZDRAVIA, Dobšiná (2)",
    "longitude": "20.37356467",
    "latitude": "48.82137870",
    "city": "Dobšiná",
    "street_name": "Hnilecká",
    "street_number": "917 - interiér",
    "postal_code": "04925",
    "region_id": "7",
    "region_name": "Košický",
    "county_id": "13",
    "county_name": "Rožňava"
  },
  {
    "id": "301",
    "title": "AG Dolnooravská NsP, Dolný Kubín (1)",
    "longitude": "19.30310947",
    "latitude": "49.21352341",
    "city": "Dolný Kubín",
    "street_name": "Nemocničná",
    "street_number": "1944\/10",
    "postal_code": "02601",
    "region_id": "4",
    "region_name": "Žilinský",
    "county_id": "68",
    "county_name": "Dolný Kubín"
  },
  {
    "id": "567",
    "title": "AG Dolnooravská NsP, Dolný Kubín (2)",
    "longitude": "19.30310947",
    "latitude": "49.21352341",
    "city": "Dolný Kubín",
    "street_name": "Nemocničná",
    "street_number": "1944\/10",
    "postal_code": "02601",
    "region_id": "4",
    "region_name": "Žilinský",
    "county_id": "68",
    "county_name": "Dolný Kubín"
  },
  {
    "id": "390",
    "title": "AG SWOT, Dvory nad Žitavou (1)",
    "longitude": "47.98563226",
    "latitude": "47.98563226",
    "city": "Dvory nad Žitavou",
    "street_name": "Veľká Komárňanská",
    "street_number": "1202\/1",
    "postal_code": "94131",
    "region_id": "3",
    "region_name": "Nitriansky",
    "county_id": "11",
    "county_name": "Nové Zámky"
  },
  {
    "id": "645",
    "title": "AG SWOT, Dvory nad Žitavou (2)",
    "longitude": "47.98563226",
    "latitude": "47.98563226",
    "city": "Dvory nad Žitavou",
    "street_name": "Veľká Komárňanská",
    "street_number": "1202\/1",
    "postal_code": "94131",
    "region_id": "3",
    "region_name": "Nitriansky",
    "county_id": "11",
    "county_name": "Nové Zámky"
  },
  {
    "id": "477",
    "title": "AG NsP Sv. Lukáša Galanta (1)",
    "longitude": "17.72094090",
    "latitude": "48.19577918",
    "city": "Galanta",
    "street_name": "Hodská",
    "street_number": "373\/38",
    "postal_code": null,
    "region_id": null,
    "region_name": null,
    "county_id": null,
    "county_name": null
  },
  {
    "id": "735",
    "title": "AG NsP Sv. Lukáša Galanta (2)",
    "longitude": "17.72094090",
    "latitude": "48.19577918",
    "city": "Galanta",
    "street_name": "Hodská",
    "street_number": "373\/38",
    "postal_code": null,
    "region_id": null,
    "region_name": null,
    "county_id": null,
    "county_name": null
  },
  {
    "id": "510",
    "title": "AG RÚVZ Galanta ()",
    "longitude": "17.72036894",
    "latitude": "48.19639087",
    "city": "Galanta",
    "street_name": "Hodská",
    "street_number": "2352\/62",
    "postal_code": "92401",
    "region_id": "2",
    "region_name": "Trnavský",
    "county_id": "3",
    "county_name": "Galanta"
  },
  {
    "id": "464",
    "title": "AG Psychiatrická nemocnica Hronovce (1)",
    "longitude": "18.65727947",
    "latitude": "48.00016347",
    "city": "Hronovce",
    "street_name": "Dr. Jána Zelenyáka",
    "street_number": "65",
    "postal_code": "93561",
    "region_id": "3",
    "region_name": "Nitriansky",
    "county_id": "28",
    "county_name": "Levice"
  },
  {
    "id": "726",
    "title": "AG Psychiatrická nemocnica Hronovce (2)",
    "longitude": "18.65727947",
    "latitude": "48.00016347",
    "city": "Hronovce",
    "street_name": "Dr. Jána Zelenyáka",
    "street_number": "65",
    "postal_code": "93561",
    "region_id": "3",
    "region_name": "Nitriansky",
    "county_id": "28",
    "county_name": "Levice"
  },
  {
    "id": "423",
    "title": "AG Červený kríž Humenné (1)",
    "longitude": "21.90606240",
    "latitude": "48.93568212",
    "city": "Humenné",
    "street_name": "Kukorelliho",
    "street_number": "2315\/60",
    "postal_code": "06601",
    "region_id": "6",
    "region_name": "Prešovský",
    "county_id": "9",
    "county_name": "Humenné"
  },
  {
    "id": "672",
    "title": "AG Červený kríž Humenné (2)",
    "longitude": "21.90606240",
    "latitude": "48.93568212",
    "city": "Humenné",
    "street_name": "Kukorelliho",
    "street_number": "2315\/60",
    "postal_code": "06601",
    "region_id": "6",
    "region_name": "Prešovský",
    "county_id": "9",
    "county_name": "Humenné"
  },
  {
    "id": "298",
    "title": "AG Detský Ados, Humenné (1)",
    "longitude": "21.91504410",
    "latitude": "48.92370587",
    "city": "Humenné",
    "street_name": "SNP",
    "street_number": "6360\/50",
    "postal_code": "06601",
    "region_id": "6",
    "region_name": "Prešovský",
    "county_id": "9",
    "county_name": "Humenné"
  },
  {
    "id": "565",
    "title": "AG Detský Ados, Humenné (2)",
    "longitude": "21.91504410",
    "latitude": "48.92370587",
    "city": "Humenné",
    "street_name": "SNP",
    "street_number": "6360\/50",
    "postal_code": "06601",
    "region_id": "6",
    "region_name": "Prešovský",
    "county_id": "9",
    "county_name": "Humenné"
  },
  {
    "id": "290",
    "title": "AG NsP A. Leňa Humenné (1)",
    "longitude": "21.89903955",
    "latitude": "48.93391738",
    "city": "Humenné",
    "street_name": "Nemocničná",
    "street_number": "7",
    "postal_code": "06601",
    "region_id": "6",
    "region_name": "Prešovský",
    "county_id": "9",
    "county_name": "Humenné"
  },
  {
    "id": "560",
    "title": "AG NsP A. Leňa Humenné (2)",
    "longitude": "21.89903955",
    "latitude": "48.93391738",
    "city": "Humenné",
    "street_name": "Nemocničná",
    "street_number": "7",
    "postal_code": "06601",
    "region_id": "6",
    "region_name": "Prešovský",
    "county_id": "9",
    "county_name": "Humenné"
  },
  {
    "id": "475",
    "title": "AG ZSS Slnečný dom, Humenné (1)",
    "longitude": "21.88479792",
    "latitude": "48.94360315",
    "city": "Humenné",
    "street_name": "Starinská",
    "street_number": "164",
    "postal_code": "06601",
    "region_id": "6",
    "region_name": "Prešovský",
    "county_id": "9",
    "county_name": "Humenné"
  },
  {
    "id": "733",
    "title": "AG ZSS Slnečný dom, Humenné (2)",
    "longitude": "21.88479792",
    "latitude": "48.94360315",
    "city": "Humenné",
    "street_name": "Starinská",
    "street_number": "164",
    "postal_code": "06601",
    "region_id": "6",
    "region_name": "Prešovský",
    "county_id": "9",
    "county_name": "Humenné"
  },
  {
    "id": "533",
    "title": "AG Nemocnica Kežmarok (1)",
    "longitude": "20.42153180",
    "latitude": "49.13194810",
    "city": "Kežmarok",
    "street_name": "Huncovská",
    "street_number": "42",
    "postal_code": "06001",
    "region_id": "6",
    "region_name": "Prešovský",
    "county_id": "5",
    "county_name": "Kežmarok"
  },
  {
    "id": "768",
    "title": "AG Nemocnica Kežmarok (2)",
    "longitude": "20.42153180",
    "latitude": "49.13194810",
    "city": "Kežmarok",
    "street_name": "Huncovská",
    "street_number": "42",
    "postal_code": "06001",
    "region_id": "6",
    "region_name": "Prešovský",
    "county_id": "5",
    "county_name": "Kežmarok"
  },
  {
    "id": "440",
    "title": "AG Sv. Valéria, Zdravcentrum IS, Komárno (1)",
    "longitude": "18.12642098",
    "latitude": "47.76227430",
    "city": "Komárno",
    "street_name": "Senný trh",
    "street_number": "799\/6",
    "postal_code": "94505",
    "region_id": "3",
    "region_name": "Nitriansky",
    "county_id": "26",
    "county_name": "Komárno"
  },
  {
    "id": "712",
    "title": "AG Sv. Valéria, Zdravcentrum IS, Komárno (2)",
    "longitude": "18.12642098",
    "latitude": "47.76227430",
    "city": "Komárno",
    "street_name": "Senný trh",
    "street_number": "799\/6",
    "postal_code": "94505",
    "region_id": "3",
    "region_name": "Nitriansky",
    "county_id": "26",
    "county_name": "Komárno"
  },
  {
    "id": "356",
    "title": "AG DFN Košice",
    "longitude": "21.23862294",
    "latitude": "48.72170679",
    "city": "Košice",
    "street_name": "Trieda SNP",
    "street_number": "1",
    "postal_code": "04011",
    "region_id": "7",
    "region_name": "Košický",
    "county_id": "80",
    "county_name": "Košice II"
  },
  {
    "id": "353",
    "title": "AG Michaella, Košice (1)",
    "longitude": "21.25583118",
    "latitude": "48.72010336",
    "city": "Košice",
    "street_name": "Alžbetina",
    "street_number": "19 - interiér",
    "postal_code": "04001",
    "region_id": "7",
    "region_name": "Košický",
    "county_id": "77",
    "county_name": "Košice I"
  },
  {
    "id": "620",
    "title": "AG Michaella, Košice (2)",
    "longitude": "21.25583118",
    "latitude": "48.72010336",
    "city": "Košice",
    "street_name": "Alžbetina",
    "street_number": "19 - interiér",
    "postal_code": "04001",
    "region_id": "7",
    "region_name": "Košický",
    "county_id": "77",
    "county_name": "Košice I"
  },
  {
    "id": "357",
    "title": "AG RoyalMedical Group, Košice (1)",
    "longitude": "21.23643844",
    "latitude": "48.71476877",
    "city": "Košice",
    "street_name": "Toryská",
    "street_number": "1",
    "postal_code": "04011",
    "region_id": "7",
    "region_name": "Košický",
    "county_id": "80",
    "county_name": "Košice II"
  },
  {
    "id": "623",
    "title": "AG RoyalMedical Group, Košice (2)",
    "longitude": "21.23643844",
    "latitude": "48.71476877",
    "city": "Košice",
    "street_name": "Toryská",
    "street_number": "1",
    "postal_code": "04011",
    "region_id": "7",
    "region_name": "Košický",
    "county_id": "80",
    "county_name": "Košice II"
  },
  {
    "id": "352",
    "title": "AG SČK Košice (1)",
    "longitude": "21.23342251",
    "latitude": "48.72272074",
    "city": "Košice",
    "street_name": "Ipeľská",
    "street_number": "1",
    "postal_code": "04011",
    "region_id": "7",
    "region_name": "Košický",
    "county_id": "80",
    "county_name": "Košice II"
  },
  {
    "id": "621",
    "title": "AG SČK Košice (2)",
    "longitude": "21.23342251",
    "latitude": "48.72272074",
    "city": "Košice",
    "street_name": "Ipeľská",
    "street_number": "1",
    "postal_code": "04011",
    "region_id": "7",
    "region_name": "Košický",
    "county_id": "80",
    "county_name": "Košice II"
  },
  {
    "id": "378",
    "title": "AG NsP Kráľovský Chlmec (1)",
    "longitude": "21.97833390",
    "latitude": "48.42016969",
    "city": "Kráľovský Chlmec",
    "street_name": "Nemocničná",
    "street_number": "18",
    "postal_code": "07701",
    "region_id": "7",
    "region_name": "Košický",
    "county_id": "20",
    "county_name": "Trebišov"
  },
  {
    "id": "636",
    "title": "AG NsP Kráľovský Chlmec (2)",
    "longitude": "21.97833390",
    "latitude": "48.42016969",
    "city": "Kráľovský Chlmec",
    "street_name": "Nemocničná",
    "street_number": "18",
    "postal_code": "07701",
    "region_id": "7",
    "region_name": "Košický",
    "county_id": "20",
    "county_name": "Trebišov"
  },
  {
    "id": "513",
    "title": "AG RÚVZ Levice",
    "longitude": "18.60586757",
    "latitude": "48.21760550",
    "city": "Levice",
    "street_name": "Komenského",
    "street_number": "3186\/4",
    "postal_code": "93405",
    "region_id": "3",
    "region_name": "Nitriansky",
    "county_id": "28",
    "county_name": "Levice"
  },
  {
    "id": "474",
    "title": "AG SWOT, Levice  (1)",
    "longitude": "18.61050798",
    "latitude": "48.21639374",
    "city": "Levice",
    "street_name": "Červenej armády",
    "street_number": "12",
    "postal_code": "93401",
    "region_id": "3",
    "region_name": "Nitriansky",
    "county_id": "28",
    "county_name": "Levice"
  },
  {
    "id": "732",
    "title": "AG SWOT, Levice (2)",
    "longitude": "18.61050798",
    "latitude": "48.21639374",
    "city": "Levice",
    "street_name": "Červenej armády",
    "street_number": "12",
    "postal_code": "93401",
    "region_id": "3",
    "region_name": "Nitriansky",
    "county_id": "28",
    "county_name": "Levice"
  },
  {
    "id": "508",
    "title": "AG Nemocnica AGEL Levoča (1)",
    "longitude": "20.59063674",
    "latitude": "49.02210632",
    "city": "Levoča",
    "street_name": "Probstnerova cesta",
    "street_number": "2",
    "postal_code": "05401",
    "region_id": "6",
    "region_name": "Prešovský",
    "county_id": "29",
    "county_name": "Levoča"
  },
  {
    "id": "761",
    "title": "AG Nemocnica AGEL Levoča (2)",
    "longitude": "20.59063674",
    "latitude": "49.02210632",
    "city": "Levoča",
    "street_name": "Probstnerova cesta",
    "street_number": "2",
    "postal_code": "05401",
    "region_id": "6",
    "region_name": "Prešovský",
    "county_id": "29",
    "county_name": "Levoča"
  },
  {
    "id": "294",
    "title": "AG SANA, Levoča (1)",
    "longitude": "20.58541541",
    "latitude": "49.02426113",
    "city": "Levoča",
    "street_name": "Nová",
    "street_number": "445\/13",
    "postal_code": "05401",
    "region_id": "6",
    "region_name": "Prešovský",
    "county_id": "29",
    "county_name": "Levoča"
  },
  {
    "id": "412",
    "title": "AG SANA, Levoča (2)",
    "longitude": "20.58541541",
    "latitude": "49.02426113",
    "city": "Levoča",
    "street_name": "Nová",
    "street_number": "445\/13",
    "postal_code": "05401",
    "region_id": "6",
    "region_name": "Prešovský",
    "county_id": "29",
    "county_name": "Levoča"
  },
  {
    "id": "302",
    "title": "AG Bene Vobis, Liptovský Hrádok (1)",
    "longitude": "19.72091940",
    "latitude": "49.03890928",
    "city": "Liptovský Hrádok",
    "street_name": "Pri železnici",
    "street_number": "1737 - interiér",
    "postal_code": "03301",
    "region_id": "4",
    "region_name": "Žilinský",
    "county_id": "44",
    "county_name": "Liptovský Mikuláš"
  },
  {
    "id": "568",
    "title": "AG Bene Vobis, Liptovský Hrádok (2)",
    "longitude": "19.72091940",
    "latitude": "49.03890928",
    "city": "Liptovský Hrádok",
    "street_name": "Pri železnici",
    "street_number": "1737 - interiér",
    "postal_code": "03301",
    "region_id": "4",
    "region_name": "Žilinský",
    "county_id": "44",
    "county_name": "Liptovský Mikuláš"
  },
  {
    "id": "527",
    "title": "AG Bonum Salutem, Liptovský Mikuláš (1)",
    "longitude": "19.58480878",
    "latitude": "49.06046652",
    "city": "Liptovský Mikuláš",
    "street_name": "Demänovská cesta",
    "street_number": "296",
    "postal_code": null,
    "region_id": null,
    "region_name": null,
    "county_id": null,
    "county_name": null
  },
  {
    "id": "752",
    "title": "AG Bonum Salutem, Liptovský Mikuláš (2)",
    "longitude": "19.58480878",
    "latitude": "49.06046652",
    "city": "Liptovský Mikuláš",
    "street_name": "Demänovská cesta",
    "street_number": "296",
    "postal_code": null,
    "region_id": null,
    "region_name": null,
    "county_id": null,
    "county_name": null
  },
  {
    "id": "282",
    "title": "AG IVIMED, Lučenec (1)",
    "longitude": "19.66339776",
    "latitude": "48.33557765",
    "city": "Lučenec",
    "street_name": "Janka Kráľa",
    "street_number": "1488\/14",
    "postal_code": "98401",
    "region_id": "5",
    "region_name": "Banskobystrický",
    "county_id": "1",
    "county_name": "Lučenec"
  },
  {
    "id": "554",
    "title": "AG IVIMED, Lučenec (2)",
    "longitude": "19.66339776",
    "latitude": "48.33557765",
    "city": "Lučenec",
    "street_name": "Janka Kráľa",
    "street_number": "1488\/14",
    "postal_code": "98401",
    "region_id": "5",
    "region_name": "Banskobystrický",
    "county_id": "1",
    "county_name": "Lučenec"
  },
  {
    "id": "283",
    "title": "AG MUDr. Miroslav Slíž, Lučenec (1)",
    "longitude": "19.66213098",
    "latitude": "48.33733905",
    "city": "Lučenec",
    "street_name": "Kuzmanyho",
    "street_number": "1757\/7",
    "postal_code": "98401",
    "region_id": "5",
    "region_name": "Banskobystrický",
    "county_id": "1",
    "county_name": "Lučenec"
  },
  {
    "id": "409",
    "title": "AG MUDr. Miroslav Slíž, Lučenec (2)",
    "longitude": "19.66213098",
    "latitude": "48.33733905",
    "city": "Lučenec",
    "street_name": "Kuzmanyho",
    "street_number": "1757\/7",
    "postal_code": "98401",
    "region_id": "5",
    "region_name": "Banskobystrický",
    "county_id": "1",
    "county_name": "Lučenec"
  },
  {
    "id": "339",
    "title": "AG LASER THERAPY, Malacky (1)",
    "longitude": "17.02589074",
    "latitude": "48.43832429",
    "city": "Malacky",
    "street_name": "Zámocká",
    "street_number": "18 - interiér",
    "postal_code": "90101",
    "region_id": "1",
    "region_name": "Bratislavský",
    "county_id": "54",
    "county_name": "Malacky"
  },
  {
    "id": "612",
    "title": "AG LASER THERAPY, Malacky (2)",
    "longitude": "17.02589074",
    "latitude": "48.43832429",
    "city": "Malacky",
    "street_name": "Zámocká",
    "street_number": "18 - interiér",
    "postal_code": "90101",
    "region_id": "1",
    "region_name": "Bratislavský",
    "county_id": "54",
    "county_name": "Malacky"
  },
  {
    "id": "530",
    "title": "AG MED-CENTRUM, Martin (1)",
    "longitude": "18.91902537",
    "latitude": "49.05960104",
    "city": "Martin",
    "street_name": "Kollárova",
    "street_number": "17",
    "postal_code": "03601",
    "region_id": "4",
    "region_name": "Žilinský",
    "county_id": "41",
    "county_name": "Martin"
  },
  {
    "id": "675",
    "title": "AG MED-CENTRUM, Martin (2)",
    "longitude": "18.91902537",
    "latitude": "49.05960104",
    "city": "Martin",
    "street_name": "Kollárova",
    "street_number": "17",
    "postal_code": "03601",
    "region_id": "4",
    "region_name": "Žilinský",
    "county_id": "41",
    "county_name": "Martin"
  },
  {
    "id": "479",
    "title": "AG RUVZ Martin",
    "longitude": "18.91822288",
    "latitude": "49.06781246",
    "city": "Martin",
    "street_name": "budova B, Kuzmányho",
    "street_number": "27",
    "postal_code": "03601",
    "region_id": "4",
    "region_name": "Žilinský",
    "county_id": "41",
    "county_name": "Martin"
  },
  {
    "id": "362",
    "title": "AG Michaella, Michalovce (1)",
    "longitude": "21.91530327",
    "latitude": "48.75560700",
    "city": "Michalovce",
    "street_name": "Námestie osloboditeľov",
    "street_number": "70 - interiér",
    "postal_code": "07101",
    "region_id": "7",
    "region_name": "Košický",
    "county_id": "25",
    "county_name": "Michalovce"
  },
  {
    "id": "626",
    "title": "AG Michaella, Michalovce (2)",
    "longitude": "21.91530327",
    "latitude": "48.75560700",
    "city": "Michalovce",
    "street_name": "Námestie osloboditeľov",
    "street_number": "70 - interiér",
    "postal_code": "07101",
    "region_id": "7",
    "region_name": "Košický",
    "county_id": "25",
    "county_name": "Michalovce"
  },
  {
    "id": "363",
    "title": "AG NsP Š. Kukuru Michalovce (1)",
    "longitude": "21.91554267",
    "latitude": "48.75283636",
    "city": "Michalovce",
    "street_name": "Špitálska",
    "street_number": "1266\/2",
    "postal_code": "07101",
    "region_id": "7",
    "region_name": "Košický",
    "county_id": "25",
    "county_name": "Michalovce"
  },
  {
    "id": "627",
    "title": "AG NsP Š. Kukuru Michalovce (2)",
    "longitude": "21.91554267",
    "latitude": "48.75283636",
    "city": "Michalovce",
    "street_name": "Špitálska",
    "street_number": "1266\/2",
    "postal_code": "07101",
    "region_id": "7",
    "region_name": "Košický",
    "county_id": "25",
    "county_name": "Michalovce"
  },
  {
    "id": "493",
    "title": "AG MEDICAL SAFE, Trnava-Modranka (1)",
    "longitude": "17.61276683",
    "latitude": "48.34860617",
    "city": "Modranka",
    "street_name": "(Dom kultúry) Sereďská",
    "street_number": "131",
    "postal_code": "91705",
    "region_id": "2",
    "region_name": "Trnavský",
    "county_id": "47",
    "county_name": "Trnava"
  },
  {
    "id": "679",
    "title": "AG MEDICAL SAFE, Trnava-Modranka (2)",
    "longitude": "17.61276683",
    "latitude": "48.34860617",
    "city": "Modranka",
    "street_name": "(Dom kultúry) Sereďská",
    "street_number": "131",
    "postal_code": "91705",
    "region_id": "2",
    "region_name": "Trnavský",
    "county_id": "47",
    "county_name": "Trnava"
  },
  {
    "id": "518",
    "title": "AG LEK-NO, Námestovo (1)",
    "longitude": "19.47827998",
    "latitude": "49.41096163",
    "city": "Námestovo",
    "street_name": "Štefánikova",
    "street_number": "1090\/82",
    "postal_code": "02901",
    "region_id": "4",
    "region_name": "Žilinský",
    "county_id": "16",
    "county_name": "Námestovo"
  },
  {
    "id": "711",
    "title": "AG LEK-NO, Námestovo (2)",
    "longitude": "19.47827998",
    "latitude": "49.41096163",
    "city": "Námestovo",
    "street_name": "Štefánikova",
    "street_number": "1090\/82",
    "postal_code": "02901",
    "region_id": "4",
    "region_name": "Žilinský",
    "county_id": "16",
    "county_name": "Námestovo"
  },
  {
    "id": "313",
    "title": "AG MEDIFORM, Nová Baňa (1)",
    "longitude": "18.64129700",
    "latitude": "48.41611500",
    "city": "Nová Baňa",
    "street_name": "Cintorínska",
    "street_number": "20",
    "postal_code": "96801",
    "region_id": "5",
    "region_name": "Banskobystrický",
    "county_id": "61",
    "county_name": "Žarnovica"
  },
  {
    "id": "587",
    "title": "AG MEDIFORM, Nová Baňa (2)",
    "longitude": "18.64129700",
    "latitude": "48.41611500",
    "city": "Nová Baňa",
    "street_name": "Cintorínska",
    "street_number": "20",
    "postal_code": "96801",
    "region_id": "5",
    "region_name": "Banskobystrický",
    "county_id": "61",
    "county_name": "Žarnovica"
  },
  {
    "id": "291",
    "title": "AG SWOT, Nové Zámky (1)",
    "longitude": "18.15835403",
    "latitude": "47.98349950",
    "city": "Nové Zámky",
    "street_name": "Michalská Bašta",
    "street_number": "27",
    "postal_code": "94002",
    "region_id": "3",
    "region_name": "Nitriansky",
    "county_id": "11",
    "county_name": "Nové Zámky"
  },
  {
    "id": "561",
    "title": "AG SWOT, Nové Zámky (2)",
    "longitude": "18.15835403",
    "latitude": "47.98349950",
    "city": "Nové Zámky",
    "street_name": "Michalská Bašta",
    "street_number": "27",
    "postal_code": "94002",
    "region_id": "3",
    "region_name": "Nitriansky",
    "county_id": "11",
    "county_name": "Nové Zámky"
  },
  {
    "id": "296",
    "title": "AG INTERKLINIK, parkovisko za budovou, Poprad (1)",
    "longitude": "20.30735393",
    "latitude": "49.06060899",
    "city": "Poprad",
    "street_name": "Športová",
    "street_number": "1397\/1",
    "postal_code": "05801",
    "region_id": "6",
    "region_name": "Prešovský",
    "county_id": "36",
    "county_name": "Poprad"
  },
  {
    "id": "563",
    "title": "AG INTERKLINIK, parkovisko za budovou, Poprad (2)",
    "longitude": "20.30735393",
    "latitude": "49.06060899",
    "city": "Poprad",
    "street_name": "Športová",
    "street_number": "1397\/1",
    "postal_code": "05801",
    "region_id": "6",
    "region_name": "Prešovský",
    "county_id": "36",
    "county_name": "Poprad"
  },
  {
    "id": "492",
    "title": "AG Nemocnica Poprad",
    "longitude": "20.30345491",
    "latitude": "49.05197013",
    "city": "Poprad",
    "street_name": "Banícka",
    "street_number": "803",
    "postal_code": "05801",
    "region_id": "6",
    "region_name": "Prešovský",
    "county_id": "36",
    "county_name": "Poprad"
  },
  {
    "id": "519",
    "title": "AG RÚVZ Poprad",
    "longitude": "20.30235072",
    "latitude": "49.05248543",
    "city": "Poprad",
    "street_name": "Zdravotnícka",
    "street_number": "3525\/3",
    "postal_code": "05801",
    "region_id": "6",
    "region_name": "Prešovský",
    "county_id": "36",
    "county_name": "Poprad"
  },
  {
    "id": "507",
    "title": "AG SČK Poprad (1)",
    "longitude": "20.29232098",
    "latitude": "49.05805160",
    "city": "Poprad",
    "street_name": "Karpatská 7 - areál za hotelom Tatra zo strany",
    "street_number": "AS",
    "postal_code": "05801",
    "region_id": "6",
    "region_name": "Prešovský",
    "county_id": "36",
    "county_name": "Poprad"
  },
  {
    "id": "755",
    "title": "AG SČK Poprad (2)",
    "longitude": "20.29232098",
    "latitude": "49.05805160",
    "city": "Poprad",
    "street_name": "Karpatská 7 - areál za hotelom Tatra zo strany",
    "street_number": "AS",
    "postal_code": "05801",
    "region_id": "6",
    "region_name": "Prešovský",
    "county_id": "36",
    "county_name": "Poprad"
  },
  {
    "id": "490",
    "title": "AG FNsP Prešov",
    "longitude": "21.25249375",
    "latitude": "48.99933673",
    "city": "Prešov",
    "street_name": "vchod z ulice Sládkovičova",
    "street_number": "5969",
    "postal_code": "08001",
    "region_id": "6",
    "region_name": "Prešovský",
    "county_id": "7",
    "county_name": "Prešov"
  },
  {
    "id": "461",
    "title": "AG Wesper, Prešov (1)",
    "longitude": "21.26698171",
    "latitude": "48.99425113",
    "city": "Prešov",
    "street_name": "Jurkovičova",
    "street_number": "19",
    "postal_code": "08001",
    "region_id": "6",
    "region_name": "Prešovský",
    "county_id": "7",
    "county_name": "Prešov"
  },
  {
    "id": "723",
    "title": "AG Wesper, Prešov (2)",
    "longitude": "21.26698171",
    "latitude": "48.99425113",
    "city": "Prešov",
    "street_name": "Jurkovičova",
    "street_number": "19",
    "postal_code": "08001",
    "region_id": "6",
    "region_name": "Prešovský",
    "county_id": "7",
    "county_name": "Prešov"
  },
  {
    "id": "288",
    "title": "AG IVIMED, Rimavská Sobota (1)",
    "longitude": "20.02962973",
    "latitude": "48.38710923",
    "city": "Rimavská Sobota",
    "street_name": "Cintorínska",
    "street_number": "4304\/3",
    "postal_code": "98401",
    "region_id": "5",
    "region_name": "Banskobystrický",
    "county_id": "1",
    "county_name": "Lučenec"
  },
  {
    "id": "408",
    "title": "AG IVIMED, Rimavská Sobota (2)",
    "longitude": "20.02962973",
    "latitude": "48.38710923",
    "city": "Rimavská Sobota",
    "street_name": "Cintorínska",
    "street_number": "4304\/3",
    "postal_code": "98401",
    "region_id": "5",
    "region_name": "Banskobystrický",
    "county_id": "1",
    "county_name": "Lučenec"
  },
  {
    "id": "534",
    "title": "AG RUVZ Rožňava",
    "longitude": "20.53438443",
    "latitude": "48.66501922",
    "city": "Rožňava",
    "street_name": "Špitálska",
    "street_number": "3",
    "postal_code": "04801",
    "region_id": "7",
    "region_name": "Košický",
    "county_id": "13",
    "county_name": "Rožňava"
  },
  {
    "id": "427",
    "title": "AG Bonum Salutem, Ružomberok (1)",
    "longitude": "19.30480871",
    "latitude": "49.08115125",
    "city": "Ružomberok",
    "street_name": "Podhora",
    "street_number": "47\/1",
    "postal_code": "03401",
    "region_id": "4",
    "region_name": "Žilinský",
    "county_id": "46",
    "county_name": "Ružomberok"
  },
  {
    "id": "688",
    "title": "AG Bonum Salutem, Ružomberok (2)",
    "longitude": "19.30480871",
    "latitude": "49.08115125",
    "city": "Ružomberok",
    "street_name": "Podhora",
    "street_number": "47\/1",
    "postal_code": "03401",
    "region_id": "4",
    "region_name": "Žilinský",
    "county_id": "46",
    "county_name": "Ružomberok"
  },
  {
    "id": "421",
    "title": "AG MANELI, Ružomberok (1)",
    "longitude": "19.31480205",
    "latitude": "49.07407938",
    "city": "Ružomberok",
    "street_name": "Bystrická cesta",
    "street_number": "16",
    "postal_code": "03401",
    "region_id": "4",
    "region_name": "Žilinský",
    "county_id": "46",
    "county_name": "Ružomberok"
  },
  {
    "id": "670",
    "title": "AG MANELI, Ružomberok (2)",
    "longitude": "19.31480205",
    "latitude": "49.07407938",
    "city": "Ružomberok",
    "street_name": "Bystrická cesta",
    "street_number": "16",
    "postal_code": "03401",
    "region_id": "4",
    "region_name": "Žilinský",
    "county_id": "46",
    "county_name": "Ružomberok"
  },
  {
    "id": "448",
    "title": "AG Poliklinika Sabinov (1)",
    "longitude": "21.10780592",
    "latitude": "49.09929780",
    "city": "Sabinov",
    "street_name": "ul. SNP",
    "street_number": "1",
    "postal_code": null,
    "region_id": null,
    "region_name": null,
    "county_id": null,
    "county_name": null
  },
  {
    "id": "762",
    "title": "AG Poliklinika Sabinov (2)",
    "longitude": "21.10780592",
    "latitude": "49.09929780",
    "city": "Sabinov",
    "street_name": "ul. SNP",
    "street_number": "1",
    "postal_code": null,
    "region_id": null,
    "region_name": null,
    "county_id": null,
    "county_name": null
  },
  {
    "id": "487",
    "title": "AG SČK Senica (1)",
    "longitude": "17.35631708",
    "latitude": "48.67851227",
    "city": "Senica",
    "street_name": "Denné centrum, Hviezdoslavova",
    "street_number": "323",
    "postal_code": "90501",
    "region_id": "2",
    "region_name": "Trnavský",
    "county_id": "48",
    "county_name": "Senica"
  },
  {
    "id": "678",
    "title": "AG SČK Senica (2)",
    "longitude": "17.35631708",
    "latitude": "48.67851227",
    "city": "Senica",
    "street_name": "Denné centrum, Hviezdoslavova",
    "street_number": "323",
    "postal_code": "90501",
    "region_id": "2",
    "region_name": "Trnavský",
    "county_id": "48",
    "county_name": "Senica"
  },
  {
    "id": "373",
    "title": "AG SANA, Smižany (1)",
    "longitude": "20.51264266",
    "latitude": "48.95716303",
    "city": "Smižany",
    "street_name": "Tatranská",
    "street_number": "918\/80",
    "postal_code": "05311",
    "region_id": "7",
    "region_name": "Košický",
    "county_id": "14",
    "county_name": "Spišská Nová Ves"
  },
  {
    "id": "634",
    "title": "AG SANA, Smižany (2)",
    "longitude": "20.51264266",
    "latitude": "48.95716303",
    "city": "Smižany",
    "street_name": "Tatranská",
    "street_number": "918\/80",
    "postal_code": "05311",
    "region_id": "7",
    "region_name": "Košický",
    "county_id": "14",
    "county_name": "Spišská Nová Ves"
  },
  {
    "id": "297",
    "title": "AG Detský Ados, Snina (1)",
    "longitude": "22.15901216",
    "latitude": "48.99906545",
    "city": "Snina",
    "street_name": "Pčolinská",
    "street_number": "2744\/45 (Futb. štadión)",
    "postal_code": "06901",
    "region_id": "6",
    "region_name": "Prešovský",
    "county_id": "39",
    "county_name": "Snina"
  },
  {
    "id": "564",
    "title": "AG Detský Ados, Snina (2)",
    "longitude": "22.15901216",
    "latitude": "48.99906545",
    "city": "Snina",
    "street_name": "Pčolinská",
    "street_number": "2744\/45 (Futb. štadión)",
    "postal_code": "06901",
    "region_id": "6",
    "region_name": "Prešovský",
    "county_id": "39",
    "county_name": "Snina"
  },
  {
    "id": "497",
    "title": "AG SČK Snina (1)",
    "longitude": "22.14717100",
    "latitude": "48.98781991",
    "city": "Snina",
    "street_name": "1. mája",
    "street_number": "882\/17",
    "postal_code": "06901",
    "region_id": "6",
    "region_name": "Prešovský",
    "county_id": "39",
    "county_name": "Snina"
  },
  {
    "id": "685",
    "title": "AG SČK Snina (2)",
    "longitude": "22.14717100",
    "latitude": "48.98781991",
    "city": "Snina",
    "street_name": "1. mája",
    "street_number": "882\/17",
    "postal_code": "06901",
    "region_id": "6",
    "region_name": "Prešovský",
    "county_id": "39",
    "county_name": "Snina"
  },
  {
    "id": "485",
    "title": "AG Regionálna nemocnica Sobrance (1)",
    "longitude": "22.18644054",
    "latitude": "48.74520692",
    "city": "Sobrance",
    "street_name": "Mieru",
    "street_number": "12",
    "postal_code": "07301",
    "region_id": "7",
    "region_name": "Košický",
    "county_id": "35",
    "county_name": "Sobrance"
  },
  {
    "id": "544",
    "title": "AG Regionálna nemocnica Sobrance (2)",
    "longitude": "22.18644054",
    "latitude": "48.74520692",
    "city": "Sobrance",
    "street_name": "Mieru",
    "street_number": "12",
    "postal_code": "07301",
    "region_id": "7",
    "region_name": "Košický",
    "county_id": "35",
    "county_name": "Sobrance"
  },
  {
    "id": "374",
    "title": "AG Michaella, Spišská Nová Ves (1)",
    "longitude": "20.56442511",
    "latitude": "48.94157745",
    "city": "Spišská Nová Ves",
    "street_name": "Ing. Kožucha",
    "street_number": "12 - interiér",
    "postal_code": "05201",
    "region_id": "7",
    "region_name": "Košický",
    "county_id": "14",
    "county_name": "Spišská Nová Ves"
  },
  {
    "id": "635",
    "title": "AG Michaella, Spišská Nová Ves (2)",
    "longitude": "20.56442511",
    "latitude": "48.94157745",
    "city": "Spišská Nová Ves",
    "street_name": "Ing. Kožucha",
    "street_number": "12 - interiér",
    "postal_code": "05201",
    "region_id": "7",
    "region_name": "Košický",
    "county_id": "14",
    "county_name": "Spišská Nová Ves"
  },
  {
    "id": "465",
    "title": "AG Nemocnica Spišská Nová Ves (1)",
    "longitude": "20.56677960",
    "latitude": "48.95610339",
    "city": "Spišská Nová Ves",
    "street_name": "Jána Janského",
    "street_number": "0",
    "postal_code": "05201",
    "region_id": "7",
    "region_name": "Košický",
    "county_id": "14",
    "county_name": "Spišská Nová Ves"
  },
  {
    "id": "727",
    "title": "AG Nemocnica Spišská Nová Ves (2)",
    "longitude": "20.56677960",
    "latitude": "48.95610339",
    "city": "Spišská Nová Ves",
    "street_name": "Jána Janského",
    "street_number": "0",
    "postal_code": "05201",
    "region_id": "7",
    "region_name": "Košický",
    "county_id": "14",
    "county_name": "Spišská Nová Ves"
  },
  {
    "id": "532",
    "title": "AG RUVZ Spišská Nová Ves",
    "longitude": "20.56265348",
    "latitude": "48.93906967",
    "city": "Spišská Nová Ves",
    "street_name": "A. Mickiewicza",
    "street_number": "6",
    "postal_code": "05201",
    "region_id": "7",
    "region_name": "Košický",
    "county_id": "14",
    "county_name": "Spišská Nová Ves"
  },
  {
    "id": "375",
    "title": "AG SANA, Spišská Nová Ves (1)",
    "longitude": "20.57612060",
    "latitude": "48.93589143",
    "city": "Spišská Nová Ves",
    "street_name": "Mlynská",
    "street_number": "39\/C",
    "postal_code": "05201",
    "region_id": "7",
    "region_name": "Košický",
    "county_id": "14",
    "county_name": "Spišská Nová Ves"
  },
  {
    "id": "574",
    "title": "AG SANA, Spišská Nová Ves (2)",
    "longitude": "20.57612060",
    "latitude": "48.93589143",
    "city": "Spišská Nová Ves",
    "street_name": "Mlynská",
    "street_number": "39\/C",
    "postal_code": "05201",
    "region_id": "7",
    "region_name": "Košický",
    "county_id": "14",
    "county_name": "Spišská Nová Ves"
  },
  {
    "id": "391",
    "title": "AG Ľubovnianska nemocnica (1)",
    "longitude": "20.68865706",
    "latitude": "49.29784330",
    "city": "Stará Ľubovňa",
    "street_name": "Obrancov mieru",
    "street_number": "3",
    "postal_code": "06401",
    "region_id": "6",
    "region_name": "Prešovský",
    "county_id": "71",
    "county_name": "Stará Ľubovňa"
  },
  {
    "id": "646",
    "title": "AG Ľubovnianska nemocnica (2)",
    "longitude": "20.68865706",
    "latitude": "49.29784330",
    "city": "Stará Ľubovňa",
    "street_name": "Obrancov mieru",
    "street_number": "3",
    "postal_code": "06401",
    "region_id": "6",
    "region_name": "Prešovský",
    "county_id": "71",
    "county_name": "Stará Ľubovňa"
  },
  {
    "id": "488",
    "title": "AG SČK Stropkov (1)",
    "longitude": "21.65188871",
    "latitude": "49.20422781",
    "city": "Stropkov",
    "street_name": "Hlavná",
    "street_number": "38\/2",
    "postal_code": "09101",
    "region_id": "6",
    "region_name": "Prešovský",
    "county_id": "31",
    "county_name": "Stropkov"
  },
  {
    "id": "738",
    "title": "AG SČK Stropkov (2)",
    "longitude": "21.65188871",
    "latitude": "49.20422781",
    "city": "Stropkov",
    "street_name": "Hlavná",
    "street_number": "38\/2",
    "postal_code": "09101",
    "region_id": "6",
    "region_name": "Prešovský",
    "county_id": "31",
    "county_name": "Stropkov"
  },
  {
    "id": "460",
    "title": "AG NsP Svidník (1)",
    "longitude": "21.56983774",
    "latitude": "49.31359723",
    "city": "Svidník",
    "street_name": "MUDr. Pribulu",
    "street_number": "412\/4",
    "postal_code": "08901",
    "region_id": "6",
    "region_name": "Prešovský",
    "county_id": "42",
    "county_name": "Svidník"
  },
  {
    "id": "722",
    "title": "AG NsP Svidník (2)",
    "longitude": "21.56983774",
    "latitude": "49.31359723",
    "city": "Svidník",
    "street_name": "MUDr. Pribulu",
    "street_number": "412\/4",
    "postal_code": "08901",
    "region_id": "6",
    "region_name": "Prešovský",
    "county_id": "42",
    "county_name": "Svidník"
  },
  {
    "id": "509",
    "title": "AG RUVZ Svidník",
    "longitude": "21.57394671",
    "latitude": "49.31367803",
    "city": "Svidník",
    "street_name": "Sovietskych hrdinov",
    "street_number": "79",
    "postal_code": "08901",
    "region_id": "6",
    "region_name": "Prešovský",
    "county_id": "42",
    "county_name": "Svidník"
  },
  {
    "id": "489",
    "title": "AG SČK Svidník (1)",
    "longitude": "21.57735996",
    "latitude": "49.30583866",
    "city": "Svidník",
    "street_name": "Ul. Gen. Svobodu",
    "street_number": "706\/28",
    "postal_code": "08901",
    "region_id": "6",
    "region_name": "Prešovský",
    "county_id": "42",
    "county_name": "Svidník"
  },
  {
    "id": "737",
    "title": "AG SČK Svidník (2)",
    "longitude": "21.57735996",
    "latitude": "49.30583866",
    "city": "Svidník",
    "street_name": "Ul. Gen. Svobodu",
    "street_number": "706\/28",
    "postal_code": "08901",
    "region_id": "6",
    "region_name": "Prešovský",
    "county_id": "42",
    "county_name": "Svidník"
  },
  {
    "id": "401",
    "title": "AG SWOT, Šahy (1)",
    "longitude": "18.96019364",
    "latitude": "48.06025464",
    "city": "Šahy",
    "street_name": "Hontianska",
    "street_number": "85",
    "postal_code": "93701",
    "region_id": "3",
    "region_name": "Nitriansky",
    "county_id": "28",
    "county_name": "Levice"
  },
  {
    "id": "656",
    "title": "AG SWOT, Šahy (2)",
    "longitude": "18.96019364",
    "latitude": "48.06025464",
    "city": "Šahy",
    "street_name": "Hontianska",
    "street_number": "85",
    "postal_code": "93701",
    "region_id": "3",
    "region_name": "Nitriansky",
    "county_id": "28",
    "county_name": "Levice"
  },
  {
    "id": "407",
    "title": "AG RESCUE-BH, Šamorín (1)",
    "longitude": "17.30038638",
    "latitude": "48.02798151",
    "city": "Šamorín",
    "street_name": "Dunajská",
    "street_number": "1856\/2",
    "postal_code": "93101",
    "region_id": "2",
    "region_name": "Trnavský",
    "county_id": "19",
    "county_name": "Dunajská Streda"
  },
  {
    "id": "667",
    "title": "AG RESCUE-BH, Šamorín (2)",
    "longitude": "17.30038638",
    "latitude": "48.02798151",
    "city": "Šamorín",
    "street_name": "Dunajská",
    "street_number": "1856\/2",
    "postal_code": "93101",
    "region_id": "2",
    "region_name": "Trnavský",
    "county_id": "19",
    "county_name": "Dunajská Streda"
  },
  {
    "id": "381",
    "title": "AG Poliklinika NSK, Štúrovo (1)",
    "longitude": "18.71544356",
    "latitude": "47.78890143",
    "city": "Štúrovo",
    "street_name": "Jesenského",
    "street_number": "85",
    "postal_code": "94301",
    "region_id": "3",
    "region_name": "Nitriansky",
    "county_id": "11",
    "county_name": "Nové Zámky"
  },
  {
    "id": "602",
    "title": "AG Poliklinika NSK, Štúrovo (2)",
    "longitude": "18.71544356",
    "latitude": "47.78890143",
    "city": "Štúrovo",
    "street_name": "Jesenského",
    "street_number": "85",
    "postal_code": "94301",
    "region_id": "3",
    "region_name": "Nitriansky",
    "county_id": "11",
    "county_name": "Nové Zámky"
  },
  {
    "id": "394",
    "title": "AG SWOT, Štúrovo (1)",
    "longitude": "18.72446840",
    "latitude": "47.79942518",
    "city": "Štúrovo",
    "street_name": "Sobieskeho",
    "street_number": "5",
    "postal_code": "94301",
    "region_id": "3",
    "region_name": "Nitriansky",
    "county_id": "11",
    "county_name": "Nové Zámky"
  },
  {
    "id": "649",
    "title": "AG SWOT, Štúrovo (2)",
    "longitude": "18.72446840",
    "latitude": "47.79942518",
    "city": "Štúrovo",
    "street_name": "Sobieskeho",
    "street_number": "5",
    "postal_code": "94301",
    "region_id": "3",
    "region_name": "Nitriansky",
    "county_id": "11",
    "county_name": "Nové Zámky"
  },
  {
    "id": "402",
    "title": "AG SWOT, Šurany (1)",
    "longitude": "18.18915365",
    "latitude": "48.08763731",
    "city": "Šurany",
    "street_name": "Komenského",
    "street_number": "2",
    "postal_code": "94201",
    "region_id": "3",
    "region_name": "Nitriansky",
    "county_id": "11",
    "county_name": "Nové Zámky"
  },
  {
    "id": "657",
    "title": "AG SWOT, Šurany (2)",
    "longitude": "18.18915365",
    "latitude": "48.08763731",
    "city": "Šurany",
    "street_name": "Komenského",
    "street_number": "2",
    "postal_code": "94201",
    "region_id": "3",
    "region_name": "Nitriansky",
    "county_id": "11",
    "county_name": "Nové Zámky"
  },
  {
    "id": "295",
    "title": "AG Pe-a-ma, Topoľčany (1)",
    "longitude": "18.17908907",
    "latitude": "48.56639117",
    "city": "Topoľčany",
    "street_name": "Podjavorinskej",
    "street_number": "4704\/3 - interiér",
    "postal_code": "95501",
    "region_id": "3",
    "region_name": "Nitriansky",
    "county_id": "12",
    "county_name": "Topoľčany"
  },
  {
    "id": "411",
    "title": "AG Pe-a-ma, Topoľčany (2)",
    "longitude": "18.17908907",
    "latitude": "48.56639117",
    "city": "Topoľčany",
    "street_name": "Podjavorinskej",
    "street_number": "4704\/3 - interiér",
    "postal_code": "95501",
    "region_id": "3",
    "region_name": "Nitriansky",
    "county_id": "12",
    "county_name": "Topoľčany"
  },
  {
    "id": "379",
    "title": "AG SWOT, Topoľčany (1)",
    "longitude": "18.17654450",
    "latitude": "48.55369091",
    "city": "Topoľčany",
    "street_name": "Dušana Jurkoviča",
    "street_number": "2830",
    "postal_code": "95503",
    "region_id": "3",
    "region_name": "Nitriansky",
    "county_id": "12",
    "county_name": "Topoľčany"
  },
  {
    "id": "414",
    "title": "AG SWOT, Topoľčany (2)",
    "longitude": "18.17654450",
    "latitude": "48.55369091",
    "city": "Topoľčany",
    "street_name": "Dušana Jurkoviča",
    "street_number": "2830",
    "postal_code": "95503",
    "region_id": "3",
    "region_name": "Nitriansky",
    "county_id": "12",
    "county_name": "Topoľčany"
  },
  {
    "id": "307",
    "title": "AG OCHRANA ZDRAVIA, Tornaľa (1)",
    "longitude": "20.32419960",
    "latitude": "48.42100447",
    "city": "Tornaľa",
    "street_name": "Poštová",
    "street_number": "11 - exteriér",
    "postal_code": "98201",
    "region_id": "5",
    "region_name": "Banskobystrický",
    "county_id": "75",
    "county_name": "Revúca"
  },
  {
    "id": "583",
    "title": "AG OCHRANA ZDRAVIA, Tornaľa (2)",
    "longitude": "20.32419960",
    "latitude": "48.42100447",
    "city": "Tornaľa",
    "street_name": "Poštová",
    "street_number": "11 - exteriér",
    "postal_code": "98201",
    "region_id": "5",
    "region_name": "Banskobystrický",
    "county_id": "75",
    "county_name": "Revúca"
  },
  {
    "id": "514",
    "title": "AG RÚVZ Trebišov",
    "longitude": "21.71350802",
    "latitude": "48.61914650",
    "city": "Trebišov",
    "street_name": "Jilemnického",
    "street_number": "3370\/2",
    "postal_code": "07501",
    "region_id": "7",
    "region_name": "Košický",
    "county_id": "20",
    "county_name": "Trebišov"
  },
  {
    "id": "299",
    "title": "AG AnalytX, Trnava (1)",
    "longitude": "17.58836768",
    "latitude": "48.36856870",
    "city": "Trnava",
    "street_name": "A. Žarnova",
    "street_number": "11",
    "postal_code": "91702",
    "region_id": "2",
    "region_name": "Trnavský",
    "county_id": "47",
    "county_name": "Trnava"
  },
  {
    "id": "413",
    "title": "AG AnalytX, Trnava (2)",
    "longitude": "17.58836768",
    "latitude": "48.36856870",
    "city": "Trnava",
    "street_name": "A. Žarnova",
    "street_number": "11",
    "postal_code": "91702",
    "region_id": "2",
    "region_name": "Trnavský",
    "county_id": "47",
    "county_name": "Trnava"
  },
  {
    "id": "395",
    "title": "AG SWOT, Vráble (1)",
    "longitude": "18.30383094",
    "latitude": "48.24334537",
    "city": "Vráble",
    "street_name": "Hlavná",
    "street_number": "34",
    "postal_code": "95201",
    "region_id": "3",
    "region_name": "Nitriansky",
    "county_id": "10",
    "county_name": "Nitra"
  },
  {
    "id": "650",
    "title": "AG SWOT, Vráble (2)",
    "longitude": "18.30383094",
    "latitude": "48.24334537",
    "city": "Vráble",
    "street_name": "Hlavná",
    "street_number": "34",
    "postal_code": "95201",
    "region_id": "3",
    "region_name": "Nitriansky",
    "county_id": "10",
    "county_name": "Nitra"
  },
  {
    "id": "496",
    "title": "AG Vranovská nemocnica (1)",
    "longitude": "21.69107583",
    "latitude": "48.88689199",
    "city": "Vranov nad Topľou",
    "street_name": "M.R. Štefánika",
    "street_number": "187",
    "postal_code": "09301",
    "region_id": "6",
    "region_name": "Prešovský",
    "county_id": "15",
    "county_name": "Vranov nad Topľou"
  },
  {
    "id": "684",
    "title": "AG Vranovská nemocnica (2)",
    "longitude": "21.69107583",
    "latitude": "48.88689199",
    "city": "Vranov nad Topľou",
    "street_name": "M.R. Štefánika",
    "street_number": "187",
    "postal_code": "09301",
    "region_id": "6",
    "region_name": "Prešovský",
    "county_id": "15",
    "county_name": "Vranov nad Topľou"
  },
  {
    "id": "400",
    "title": "AG SWOT, Želiezovce (1)",
    "longitude": "18.65596974",
    "latitude": "48.04987337",
    "city": "Želiezovce",
    "street_name": "Mierová",
    "street_number": "24",
    "postal_code": "93701",
    "region_id": "3",
    "region_name": "Nitriansky",
    "county_id": "28",
    "county_name": "Levice"
  },
  {
    "id": "655",
    "title": "AG SWOT, Želiezovce (2)",
    "longitude": "18.65596974",
    "latitude": "48.04987337",
    "city": "Želiezovce",
    "street_name": "Mierová",
    "street_number": "24",
    "postal_code": "93701",
    "region_id": "3",
    "region_name": "Nitriansky",
    "county_id": "28",
    "county_name": "Levice"
  },
  {
    "id": "751",
    "title": "AG RÚVZ Žiar nad Hronom",
    "longitude": "18.85221500",
    "latitude": "48.58760720",
    "city": "Žiar nad Hronom",
    "street_name": "Ul. Cyrila a Metoda",
    "street_number": "357\/23",
    "postal_code": "96501",
    "region_id": "5",
    "region_name": "Banskobystrický",
    "county_id": "34",
    "county_name": "Žiar nad Hronom"
  },
  {
    "id": "316",
    "title": "AG Svet zdravia, Žiar nad Hronom (1)",
    "longitude": "18.84368159",
    "latitude": "48.59109025",
    "city": "Žiar nad Hronom",
    "street_name": "Sládkovičova",
    "street_number": "11",
    "postal_code": null,
    "region_id": null,
    "region_name": null,
    "county_id": null,
    "county_name": null
  },
  {
    "id": "589",
    "title": "AG Svet zdravia, Žiar nad Hronom (2)",
    "longitude": "18.84368159",
    "latitude": "48.59109025",
    "city": "Žiar nad Hronom",
    "street_name": "Sládkovičova",
    "street_number": "11",
    "postal_code": null,
    "region_id": null,
    "region_name": null,
    "county_id": null,
    "county_name": null
  },
  {
    "id": "449",
    "title": "AG FNsP Žilina (1)",
    "longitude": "18.74532362",
    "latitude": "49.21680517",
    "city": "Žilina",
    "street_name": "V. Spanyola",
    "street_number": "47A",
    "postal_code": null,
    "region_id": null,
    "region_name": null,
    "county_id": null,
    "county_name": null
  },
  {
    "id": "710",
    "title": "AG FNsP Žilina (2)",
    "longitude": "18.74532362",
    "latitude": "49.21680517",
    "city": "Žilina",
    "street_name": "V. Spanyola",
    "street_number": "47A",
    "postal_code": null,
    "region_id": null,
    "region_name": null,
    "county_id": null,
    "county_name": null
  }
]